City_ID,City,Lat,Lng,Max Temp,Humidity,Cloudiness,Wind Speed,Country,Date
0,atuona,-9.8,-139.0333,79.5,81,7,15.82,PF,1614441311
1,port elizabeth,-33.918,25.5701,73.0,74,89,8.01,ZA,1614441338
2,menongue,-14.6585,17.691,77.83,68,0,3.4,AO,1614441503
3,pingliang,35.5392,106.6861,31.55,83,100,10.29,CN,1614441504
4,katobu,-4.9408,122.5276,76.59,90,100,5.73,ID,1614441504
5,hilo,19.7297,-155.09,68.0,83,90,2.48,US,1614441504
6,arraial do cabo,-22.9661,-42.0278,86.0,66,40,21.85,BR,1614441497
7,paamiut,61.994,-49.6678,19.22,93,100,17.81,GL,1614441504
8,hermanus,-34.4187,19.2345,78.01,59,0,7.0,ZA,1614441505
9,butaritari,3.0707,172.7902,80.8,78,100,14.65,KI,1614441505
10,vaini,-21.2,-175.2,68.0,100,75,2.3,TO,1614441505
11,porangatu,-13.4408,-49.1486,78.76,86,93,5.39,BR,1614441505
12,tual,-5.6667,132.75,83.89,78,100,16.15,ID,1614441505
13,vardo,70.3705,31.1107,28.4,80,75,4.61,NO,1614441505
14,albany,42.6001,-73.9662,37.99,93,90,12.66,US,1614441502
15,kaitangata,-46.2817,169.8464,56.3,96,95,4.41,NZ,1614441506
16,acapulco,16.8634,-99.8901,78.8,78,1,6.91,MX,1614441506
17,georgetown,5.4112,100.3354,82.4,74,20,5.75,MY,1614441317
18,bredasdorp,-34.5322,20.0403,78.8,50,0,20.71,ZA,1614441506
19,udachnyy,66.4167,112.4,-25.35,81,100,2.19,RU,1614441506
20,longyearbyen,78.2186,15.6401,17.6,73,75,5.75,SJ,1614441507
21,kolaras,25.2333,77.6,77.27,28,18,4.63,IN,1614441507
22,coquimbo,-29.9533,-71.3436,68.0,68,20,9.22,CL,1614441356
23,hoa binh,20.8133,105.3383,62.6,82,75,6.91,VN,1614441507
24,mataura,-46.1927,168.8643,57.0,96,100,0.49,NZ,1614441507
25,bluff,-46.6,168.3333,57.0,96,100,5.14,NZ,1614441508
26,sitka,57.0531,-135.33,37.4,87,90,4.61,US,1614441508
27,carnarvon,-24.8667,113.6333,75.2,83,0,13.8,AU,1614441508
28,montbrison,45.6667,4.0833,48.2,61,90,11.5,FR,1614441508
29,provideniya,64.3833,-173.3,-11.43,76,0,8.75,RU,1614441508
30,lavrentiya,65.5833,-171.0,-20.25,82,0,11.05,RU,1614441509
31,brae,60.3964,-1.353,46.4,87,90,16.11,GB,1614441509
32,taybad,34.74,60.7756,39.79,50,0,9.17,IR,1614441509
33,cunha,-23.0744,-44.9597,75.2,94,75,4.61,BR,1614441509
34,tvoroyri,61.5556,-6.8111,46.4,93,75,11.5,FO,1614441509
35,hithadhoo,-0.6,73.0833,83.26,66,48,8.19,MV,1614441510
36,kumluca,36.3703,30.2869,57.7,59,0,2.51,TR,1614441510
37,mangan,27.5167,88.5333,59.34,83,51,3.09,IN,1614441510
38,shingu,33.7333,135.9833,47.21,80,100,9.57,JP,1614441510
39,jining,35.405,116.5814,45.97,82,93,10.63,CN,1614441510
40,hobart,-42.8794,147.3294,59.0,77,90,5.75,AU,1614441510
41,tiksi,71.6872,128.8694,-26.41,99,50,1.23,RU,1614441510
42,rikitea,-23.1203,-134.9692,77.09,79,72,20.36,PF,1614441511
43,krasnomayskiy,57.6194,34.4099,31.6,99,100,7.36,RU,1614441511
44,bocana de paiwas,12.7857,-85.1227,77.54,75,67,15.88,NI,1614441511
45,bethel,41.3712,-73.414,42.8,87,90,4.61,US,1614441331
46,busselton,-33.65,115.3333,63.0,79,100,14.0,AU,1614441512
47,kapaa,22.0752,-159.319,73.4,73,90,21.85,US,1614441512
48,timra,62.487,17.3257,45.0,87,75,4.61,SE,1614441512
49,cherskiy,68.75,161.3,-30.15,100,25,1.86,RU,1614441512
50,kamenka,51.3223,42.7678,21.7,85,94,17.74,RU,1614441512
51,barrow,71.2906,-156.7887,-20.2,69,90,4.61,US,1614441512
52,darhan,49.4867,105.9228,-3.32,83,16,3.62,MN,1614441512
53,takoradi,4.8845,-1.7554,83.26,74,73,9.53,GH,1614441513
54,iqaluit,63.7506,-68.5145,-22.0,63,1,3.44,CA,1614441513
55,savelugu,9.6244,-0.8253,101.41,8,22,6.08,GH,1614441513
56,khatanga,71.9667,102.5,-34.62,79,18,0.89,RU,1614441513
57,dauphin,51.1494,-100.0502,-9.4,59,90,6.91,CA,1614441513
58,bambous virieux,-20.3428,57.7575,80.6,74,75,6.91,MU,1614441514
59,nikolskoye,59.7035,30.7861,35.6,87,90,11.18,RU,1614441514
60,punta arenas,-53.15,-70.9167,68.0,45,0,12.66,CL,1614441263
61,ballina,-28.8667,153.5667,73.4,94,99,3.44,AU,1614441345
62,sao filipe,14.8961,-24.4956,72.36,63,0,15.43,CV,1614441514
63,kibakwe,-6.7167,36.3667,68.09,86,100,3.96,TZ,1614441514
64,sargatskoye,55.6101,73.4972,-20.99,86,21,8.52,RU,1614441514
65,hailey,43.5196,-114.3153,15.8,62,75,9.22,US,1614441515
66,nortelandia,-14.4547,-56.8028,84.29,72,100,4.81,BR,1614441515
67,itarema,-2.9248,-39.9167,83.32,74,100,11.39,BR,1614441515
68,prieska,-29.6641,22.7474,92.89,13,7,2.08,ZA,1614441516
69,teya,60.3778,92.6267,-14.08,84,100,6.98,RU,1614441516
70,sambava,-14.2667,50.1667,81.05,79,15,1.9,MG,1614441516
71,coronado,32.6859,-117.1831,51.8,87,1,4.61,US,1614441516
72,husavik,66.0449,-17.3389,46.4,66,75,27.63,IS,1614441516
73,ponta do sol,32.6667,-17.1,64.4,59,40,16.11,PT,1614441516
74,chernyshevskiy,63.0128,112.4714,-26.63,88,91,4.34,RU,1614441517
75,severo-kurilsk,50.6789,156.125,25.45,93,100,32.08,RU,1614441517
76,ukiah,39.1502,-123.2078,42.01,65,1,5.64,US,1614441517
77,upernavik,72.7868,-56.1549,13.24,95,100,22.88,GL,1614441517
78,mayo,38.8876,-76.5119,43.0,100,90,8.05,US,1614441517
79,tazovskiy,67.4667,78.7,-30.06,84,48,5.73,RU,1614441518
80,saint-augustin,51.226,-58.6502,22.89,92,99,20.38,CA,1614441518
81,nkpor,6.1516,6.8446,97.11,30,59,1.95,NG,1614441518
82,kodiak,57.79,-152.4072,35.6,80,90,3.44,US,1614441518
83,jega,12.2175,4.3792,99.77,8,0,7.25,NG,1614441519
84,prado,-17.3411,-39.2208,82.96,63,97,8.41,BR,1614441306
85,port alfred,-33.5906,26.891,72.0,80,96,7.0,ZA,1614441519
86,ushuaia,-54.8,-68.3,59.0,58,0,3.44,AR,1614441474
87,lakes entrance,-37.8811,147.981,57.99,94,71,3.85,AU,1614441519
88,lebu,-37.6167,-73.65,62.37,72,5,20.15,CL,1614441519
89,yagodnoye,62.55,149.6667,-26.12,83,47,0.38,RU,1614441520
90,roma,43.2128,-75.4557,39.0,75,90,5.75,US,1614441412
91,yumen,40.2833,97.2,26.46,66,100,15.9,CN,1614441520
92,la ronge,55.1001,-105.2842,-16.6,63,100,2.3,CA,1614441520
93,upata,8.0086,-62.3989,83.17,50,91,6.35,VE,1614441520
94,saint-philippe,-21.3585,55.7679,82.4,74,40,3.44,RE,1614441520
95,ano mera,37.45,25.4,60.8,55,20,13.8,GR,1614441520
96,inuvik,68.3499,-133.7218,-32.8,75,84,3.44,CA,1614441397
97,mahebourg,-20.4081,57.7,80.6,74,75,6.91,MU,1614441521
98,pilar,-9.5972,-35.9567,84.2,70,75,14.97,BR,1614441521
99,jamestown,42.097,-79.2353,39.99,95,90,12.03,US,1614441425
100,rio claro,-22.4114,-47.5614,80.6,69,75,10.36,BR,1614441521
101,castro,-24.7911,-50.0119,70.97,77,78,10.76,BR,1614441521
102,muzhi,65.3667,64.6667,-9.65,91,67,6.78,RU,1614441521
103,maureni,45.4039,21.5025,50.0,53,0,17.27,RO,1614441522
104,asau,46.4333,26.4,36.0,70,100,3.29,RO,1614441522
105,thompson,55.7435,-97.8558,-27.4,68,75,3.44,CA,1614441522
106,saint anthony,45.0205,-93.218,37.99,80,1,5.75,US,1614441522
107,kaeo,-35.1,173.7833,61.0,95,24,5.01,NZ,1614441522
108,tomatlan,19.9333,-105.25,86.86,32,29,1.99,MX,1614441522
109,puerto ayora,-0.7393,-90.3518,82.0,83,75,13.8,EC,1614441522
110,torbay,47.6666,-52.7314,24.01,68,20,13.8,CA,1614441523
111,chuy,-33.6971,-53.4616,79.47,62,30,13.06,UY,1614441523
112,ribeira grande,38.5167,-28.7,64.4,88,20,10.36,PT,1614441523
113,manzhouli,49.6,117.4333,-0.42,86,0,14.94,CN,1614441523
114,kopervik,59.2835,5.3067,43.0,100,75,3.44,NO,1614441523
115,avarua,-21.2078,-159.775,80.6,83,75,12.66,CK,1614441524
116,constitucion,-35.3333,-72.4167,70.21,51,2,14.61,CL,1614441524
117,bambanglipuro,-7.95,110.2833,77.97,85,100,4.0,ID,1614441524
118,port antonio,18.18,-76.4612,87.01,65,20,11.5,JM,1614441524
119,cape town,-33.9258,18.4232,84.2,42,0,17.27,ZA,1614441524
120,margate,51.3813,1.3862,48.99,71,0,1.01,GB,1614441289
121,rancho palos verdes,33.7445,-118.387,57.99,47,0,5.99,US,1614441525
122,new norfolk,-42.7826,147.0587,57.0,74,100,0.25,AU,1614441525
123,calama,-22.4667,-68.9333,68.0,42,0,14.97,CL,1614441525
124,mar del plata,-38.0023,-57.5575,77.0,78,0,13.8,AR,1614441248
125,tasiilaq,65.6145,-37.6368,32.0,100,75,24.16,GL,1614441526
126,east london,-33.0153,27.9116,68.0,94,90,10.36,ZA,1614441526
127,gamba,-2.65,10.0,82.87,72,0,9.64,GA,1614441526
128,benalla,-36.55,145.9833,51.01,87,0,4.23,AU,1614441526
129,ondangwa,-17.9167,15.95,85.91,36,37,8.59,NA,1614441527
130,clyde river,70.4692,-68.5914,-4.0,84,90,8.05,CA,1614441256
131,alihe,50.5667,123.7167,-0.87,86,24,4.25,CN,1614441527
132,cumaru,-8.0061,-35.6972,85.06,54,84,10.16,BR,1614441527
133,abu dhabi,24.4667,54.3667,69.8,60,0,11.5,AE,1614441527
134,vila velha,-20.3297,-40.2925,84.2,70,75,9.22,BR,1614441527
135,tuktoyaktuk,69.4541,-133.0374,-29.2,68,40,9.22,CA,1614441528
136,beira,-19.8436,34.8389,82.4,74,90,18.41,MZ,1614441528
137,chokurdakh,70.6333,147.9167,-25.53,87,83,1.7,RU,1614441528
138,port lincoln,-34.7333,135.8667,60.51,88,14,10.38,AU,1614441528
139,nouadhibou,20.931,-17.0347,65.23,63,0,19.64,MR,1614441529
140,nizhneangarsk,55.7833,109.55,-14.15,78,100,7.9,RU,1614441529
141,pustoshka,56.3355,29.369,32.32,97,100,8.9,RU,1614441529
142,ketchikan,55.3422,-131.6461,33.8,100,90,6.91,US,1614441529
143,tara,56.8944,74.371,-19.17,98,64,6.6,RU,1614441529
144,banyumas,-7.5142,109.2942,78.42,86,96,1.57,ID,1614441529
145,padang,-0.9492,100.3543,75.2,88,20,2.3,ID,1614441529
146,glenwood springs,39.5505,-107.3248,23.0,78,90,19.57,US,1614441291
147,sobolevo,54.4299,31.8996,33.37,96,100,11.14,RU,1614441530
148,lagoa,39.05,-27.9833,59.76,82,100,7.36,PT,1614441530
149,cabo san lucas,22.8909,-109.9124,62.6,55,40,1.01,MX,1614441530
150,qaanaaq,77.484,-69.3632,7.16,73,1,5.79,GL,1614441530
151,lompoc,34.6391,-120.4579,48.0,100,1,3.44,US,1614441530
152,eydhafushi,5.1033,73.0708,82.17,74,63,9.35,MV,1614441531
153,nouakchott,18.0858,-15.9785,86.0,12,0,14.97,MR,1614441531
154,havelock,34.8791,-76.9013,69.01,88,1,8.05,US,1614441531
155,malakal,9.5334,31.6605,90.25,12,100,3.02,SS,1614441532
156,erdenet,49.0333,104.0833,-6.83,90,0,2.1,MN,1614441532
157,evensk,61.95,159.2333,-6.79,63,0,10.94,RU,1614441532
158,tazmalt,36.3868,4.3989,67.03,40,0,3.67,DZ,1614441532
159,aswan,24.0934,32.907,71.89,20,0,10.76,EG,1614441532
160,nemuro,43.3236,145.575,22.26,73,40,11.48,JP,1614441532
161,kruisfontein,-34.0033,24.7314,73.0,74,72,8.01,ZA,1614441533
162,plettenberg bay,-34.0527,23.3716,70.68,76,8,17.36,ZA,1614441533
163,hami,42.8,93.45,28.4,71,97,1.7,CN,1614441533
164,saint george,37.1041,-113.5841,43.0,33,1,8.05,US,1614441533
165,bengkulu,-3.8004,102.2655,78.22,79,100,4.83,ID,1614441534
166,pleshanovo,52.8333,53.4833,32.52,97,100,9.93,RU,1614441534
167,katsuura,35.1333,140.3,39.2,52,20,10.36,JP,1614441534
168,yellowknife,62.456,-114.3525,-27.0,68,20,9.22,CA,1614441534
169,westport,41.1415,-73.3579,42.01,93,90,16.11,US,1614441534
170,portland,45.5234,-122.6762,39.99,87,75,4.79,US,1614441321
171,miami beach,25.7906,-80.1301,81.0,65,40,18.41,US,1614441514
172,touros,-5.1989,-35.4608,86.0,62,40,13.8,BR,1614441535
173,labuan,5.2767,115.2417,80.6,83,20,2.3,MY,1614441535
174,saskylakh,71.9167,114.0833,-22.88,77,95,1.05,RU,1614441535
175,codrington,-38.2667,141.9667,51.94,92,0,5.19,AU,1614441313
176,kalabo,-14.97,22.6814,78.1,66,48,3.36,ZM,1614441535
177,san quintin,30.4833,-115.95,57.49,74,99,8.12,MX,1614441535
178,tuatapere,-46.1333,167.6833,57.0,96,100,0.22,NZ,1614441535
179,sangar,63.9242,127.4739,-14.22,90,100,1.95,RU,1614441536
180,surovikino,48.6078,42.8486,36.12,90,100,12.01,RU,1614441536
181,whitehorse,60.7161,-135.0538,14.0,79,75,13.8,CA,1614441536
182,marakkanam,12.2,79.95,77.68,76,0,10.54,IN,1614441536
183,eureka,40.8021,-124.1637,45.0,84,63,5.01,US,1614441405
184,aklavik,68.2191,-135.0107,-34.6,67,40,2.3,CA,1614441537
185,belyy yar,53.6039,91.3903,3.2,51,0,8.95,RU,1614441537
186,metu,8.3,35.5833,68.86,51,94,2.42,ET,1614441537
187,altay,47.8667,88.1167,-2.49,66,63,3.94,CN,1614441538
188,kulhudhuffushi,6.6221,73.07,83.03,74,28,8.9,MV,1614441538
189,mitu,1.1983,-70.1733,82.69,79,96,4.27,CO,1614441538
190,victoria,22.2855,114.1577,64.99,86,100,1.01,HK,1614441535
191,isangel,-19.55,169.2667,73.4,100,20,9.28,VU,1614441538
192,puerto del rosario,28.5004,-13.8627,69.8,40,20,14.97,ES,1614441539
193,deputatskiy,69.3,139.9,-34.73,100,59,1.59,RU,1614441539
194,basco,20.4487,121.9702,75.38,83,82,15.48,PH,1614441539
195,narsaq,60.9167,-46.05,26.6,54,40,23.02,GL,1614441539
196,shu,43.5983,73.7614,26.06,87,97,8.12,KZ,1614441540
197,puerto leguizamo,-0.1934,-74.7819,82.47,79,92,3.6,CO,1614441540
198,villazon,-22.0866,-65.5942,61.34,40,3,5.53,BO,1614441540
199,neryungri,56.6709,124.6491,-11.52,86,100,12.71,RU,1614441540
200,kingaroy,-26.5333,151.8333,71.6,83,40,3.44,AU,1614441540
201,dikson,73.5069,80.5464,-13.23,89,100,18.79,RU,1614441541
202,amuntai,-2.4177,115.2494,74.43,95,97,2.26,ID,1614441541
203,cidreira,-30.1811,-50.2056,77.74,70,17,15.68,BR,1614441541
204,duku,11.2361,4.9073,102.96,8,0,2.26,NG,1614441541
205,saint-joseph,-21.3667,55.6167,82.4,74,40,3.44,RE,1614441541
206,bandar-e lengeh,26.5579,54.8807,71.6,60,0,6.91,IR,1614441542
207,tarata,-17.6167,-66.0167,69.8,49,75,3.44,BO,1614441542
208,kayes,14.0,-11.0,96.85,6,0,4.21,ML,1614441542
209,yerbogachen,61.2767,108.0108,-24.03,95,85,5.61,RU,1614441542
210,yulara,-25.2406,130.9889,78.8,19,0,3.44,AU,1614441542
211,hasaki,35.7333,140.8333,30.2,69,20,3.44,JP,1614441542
212,jacobina,-11.1806,-40.5183,85.17,48,98,7.18,BR,1614441543
213,batagay,67.6333,134.6333,-34.56,80,0,0.87,RU,1614441543
214,fort wellington,6.4,-57.6,82.09,68,52,12.1,GY,1614441543
215,sorland,67.667,12.6934,43.02,82,78,28.99,NO,1614441543
216,ongandjera,-17.8833,15.0667,87.98,28,31,4.32,NA,1614441544
217,tura,25.5198,90.2201,69.03,43,0,3.98,IN,1614441544
218,iberia,29.9502,-91.7507,72.0,100,90,9.22,US,1614441544
219,kushmurun,52.4503,64.6311,13.57,95,100,21.0,KZ,1614441544
220,dunedin,-45.8742,170.5036,59.0,92,94,1.99,NZ,1614441293
221,boende,-0.2167,20.8667,85.53,60,92,1.48,CD,1614441545
222,panguna,-6.3164,155.4848,69.93,100,99,3.04,PG,1614441545
223,pangnirtung,66.1451,-65.7125,-22.0,76,75,2.3,CA,1614441545
224,airai,-8.9266,125.4092,60.55,100,100,0.74,TL,1614441545
225,minbu,20.1833,94.8833,75.27,43,0,6.85,MM,1614441545
226,glendive,47.1053,-104.7125,21.2,93,90,10.36,US,1614441546
227,leningradskiy,69.3833,178.4167,-15.34,97,100,7.43,RU,1614441546
228,bilma,18.6853,12.9164,83.25,7,0,13.8,NE,1614441546
229,faanui,-16.4833,-151.75,82.17,74,52,11.01,PF,1614441546
230,magistralnyy,56.1725,107.4458,-16.08,84,98,3.83,RU,1614441546
231,male,4.1748,73.5089,84.2,79,75,5.75,MV,1614441547
232,portovelo,-3.7167,-79.6167,82.4,73,75,2.3,EC,1614441547
233,mount gambier,-37.8333,140.7667,50.0,87,2,4.61,AU,1614441547
234,shar,49.5886,81.0453,-1.52,88,79,8.81,KZ,1614441547
235,vestmannaeyjar,63.4427,-20.2734,46.4,76,40,32.21,IS,1614441547
236,iralaya,15.0,-83.2333,84.2,74,20,13.8,HN,1614441547
237,zhezkazgan,47.8043,67.7144,11.53,87,100,14.94,KZ,1614441547
238,sao joao da barra,-21.6403,-41.0511,86.0,54,75,16.11,BR,1614441548
239,buzmeyin,38.0507,58.2056,46.4,27,0,6.91,TM,1614441548
240,jalu,29.0331,21.5482,67.57,36,2,10.07,LY,1614441548
241,fortuna,40.5982,-124.1573,45.0,93,40,9.22,US,1614441549
242,shebalino,51.2917,85.6772,-6.56,80,41,4.97,RU,1614441549
243,amalapuram,16.5833,82.0167,82.4,65,40,6.91,IN,1614441549
244,mehamn,71.0357,27.8492,29.55,96,97,9.22,NO,1614441549
245,saldanha,-33.0117,17.9442,91.4,27,0,14.97,ZA,1614441549
246,san cristobal,7.7669,-72.225,75.2,100,40,6.91,VE,1614441549
247,bundaberg,-24.85,152.35,80.01,78,40,8.05,AU,1614441550
248,lingao,19.9103,109.6859,70.59,90,74,13.69,CN,1614441550
249,kirakira,-10.4544,161.9205,78.91,80,100,4.72,SB,1614441551
250,guerrero negro,27.9769,-114.0611,60.1,65,100,7.58,MX,1614441551
251,riverton,40.5219,-111.9391,30.0,68,90,6.91,US,1614441312
252,darovskoy,58.77,47.9564,1.2,96,96,5.32,RU,1614441551
253,emiliano zapata,18.8333,-99.1833,75.2,38,1,8.05,MX,1614441551
254,qeshm,26.9581,56.2719,73.4,56,0,13.8,IR,1614441551
255,norman wells,65.282,-126.8329,-36.4,74,20,2.3,CA,1614441552
256,lorengau,-2.0226,147.2712,81.93,80,23,8.01,PG,1614441552
257,progreso,21.2833,-89.6667,84.99,74,20,23.02,MX,1614441482
258,belaya gora,68.5333,146.4167,-30.48,85,96,0.87,RU,1614441552
259,grindavik,63.8424,-22.4338,44.6,76,75,33.38,IS,1614441552
260,mount isa,-20.7333,139.5,78.8,53,5,9.57,AU,1614441553
261,poltavka,54.3663,71.7632,-15.14,96,1,10.11,RU,1614441553
262,oranjemund,-28.55,16.4333,68.27,77,24,7.27,NA,1614441553
263,misratah,32.3754,15.0925,60.19,65,3,11.52,LY,1614441553
264,ilulissat,69.2167,-51.1,15.8,73,75,12.66,GL,1614441553
265,maracaju,-21.6144,-55.1683,83.71,61,28,6.89,BR,1614441554
266,havoysund,70.9963,24.6622,32.0,80,75,9.22,NO,1614441554
267,lapua,62.9693,23.0088,35.01,85,99,1.99,FI,1614441554
268,khandbari,27.3747,87.2039,64.35,44,95,2.48,NP,1614441554
269,gat,31.61,34.7642,64.99,52,0,12.73,IL,1614441554
270,talnakh,69.4865,88.3972,-29.88,81,0,4.32,RU,1614441554
271,mujiayingzi,42.1167,118.7833,33.6,83,100,7.14,CN,1614441555
272,mbour,14.422,-16.9638,87.8,16,0,13.8,SN,1614441555
273,hofn,64.2539,-15.2082,46.42,89,99,39.33,IS,1614441555
274,amapa,1.0,-52.0,79.68,85,84,4.21,BR,1614441357
275,jimenez,28.3333,-105.4,51.8,32,90,12.01,MX,1614441555
276,daugavpils,55.8833,26.5333,34.79,83,100,8.52,LV,1614441555
277,san patricio,28.017,-97.5169,73.99,83,75,23.02,US,1614441556
278,locri,38.2414,16.2623,59.0,67,0,19.57,IT,1614441556
279,waipawa,-41.4122,175.5153,64.4,72,75,11.5,NZ,1614441556
280,kamaishi,39.2667,141.8833,29.53,69,0,4.88,JP,1614441556
281,mangrol,21.1167,70.1167,75.6,79,0,12.66,IN,1614441557
282,manaure,11.7751,-72.4445,85.44,54,88,20.58,CO,1614441557
283,sarangani,5.4033,125.4636,82.54,78,98,13.91,PH,1614441557
284,aasiaat,68.7098,-52.8699,10.33,91,100,11.41,GL,1614441557
285,cayenne,4.9333,-52.3333,82.4,74,90,11.5,GF,1614441557
286,coahuayana,18.7333,-103.6833,78.8,34,1,2.1,MX,1614441558
287,lensk,60.7253,114.9278,-20.88,83,25,4.99,RU,1614441558
288,bathsheba,13.2167,-59.5167,84.2,54,40,26.46,BB,1614441558
289,romny,50.751,33.4747,34.05,97,100,8.93,UA,1614441559
290,soe,-9.8607,124.284,65.64,93,95,1.74,ID,1614441559
291,fort nelson,58.8053,-122.7002,-9.4,77,75,2.3,CA,1614441559
292,kavieng,-2.5744,150.7967,83.17,77,96,9.95,PG,1614441559
293,avera,33.194,-82.5271,62.6,72,1,7.07,US,1614441559
294,derzhavinsk,51.1,66.3167,12.43,93,100,19.35,KZ,1614441559
295,luderitz,-26.6481,15.1594,69.53,71,1,13.65,NA,1614441559
296,pimenta bueno,-11.6725,-61.1936,82.63,85,41,4.97,BR,1614441559
297,laguna,38.421,-121.4238,46.99,52,1,11.5,US,1614441559
298,aguai,-22.0594,-46.9786,80.6,69,75,10.36,BR,1614441445
299,wanning,18.8003,110.3967,72.77,89,91,6.06,CN,1614441560
300,mus,39.0,41.75,21.04,75,0,3.91,TR,1614441560
301,grants pass,42.439,-123.3284,37.99,93,90,1.23,US,1614441560
302,varhaug,58.6147,5.6457,43.0,100,75,3.44,NO,1614441560
303,souillac,-20.5167,57.5167,80.6,74,75,6.91,MU,1614441560
304,guaxupe,-21.3053,-46.7128,64.4,100,90,9.62,BR,1614441560
305,broome,42.2506,-75.833,41.0,93,90,9.22,US,1614441561
306,seoul,37.5683,126.9778,42.8,49,0,6.91,KR,1614441492
307,pevek,69.7008,170.3133,-27.35,86,0,3.56,RU,1614441561
308,rosarito,32.3333,-117.0333,50.0,49,1,1.81,MX,1614441561
309,presidencia roque saenz pena,-26.7852,-60.4388,97.0,36,0,4.0,AR,1614441494
310,tucurui,-3.7661,-49.6725,84.85,74,44,3.29,BR,1614441562
311,marzuq,14.4,46.4667,68.56,70,0,7.31,YE,1614441562
312,vanimo,-2.6741,141.3028,78.58,87,61,5.03,PG,1614441562
313,ancud,-41.8697,-73.8203,64.99,94,90,2.3,CL,1614441562
314,mumford,5.2618,-0.759,83.21,72,38,11.68,GH,1614441562
315,grants,35.1473,-107.8514,42.8,12,1,20.71,US,1614441563
316,borba,-4.3878,-59.5939,86.58,65,76,2.64,BR,1614441563
317,port hardy,50.6996,-127.4199,41.0,93,90,6.91,CA,1614441563
318,ternate,0.8,127.4,81.43,79,22,7.27,ID,1614441563
319,midland,31.9974,-102.0779,55.99,62,1,5.75,US,1614441564
320,verkhnyaya inta,65.9811,60.3094,-3.6,84,3,7.09,RU,1614441564
321,huty,50.1332,35.3439,34.34,96,99,8.88,UA,1614441564
322,saint-pierre,-21.3393,55.4781,82.4,74,40,3.44,RE,1614441564
323,geraldton,-28.7667,114.6,71.6,83,48,11.5,AU,1614441564
324,kabalo,-6.05,26.9167,78.37,83,94,1.41,CD,1614441565
325,ulaanbaatar,47.9077,106.8832,-9.4,64,0,2.24,MN,1614441565
326,faya,18.3851,42.4509,66.2,63,20,12.66,SA,1614441565
327,sur,22.5667,59.5289,71.98,68,0,11.83,OM,1614441565
328,rio grande,-32.035,-52.0986,82.4,57,75,13.8,BR,1614441565
329,beloha,-25.1667,45.05,77.31,83,55,8.84,MG,1614441566
330,urengoy,65.9667,78.3667,-27.65,85,65,3.44,RU,1614441566
331,poum,-20.2333,164.0167,80.51,77,98,16.73,NC,1614441566
332,joetsu,37.1483,138.2364,26.01,65,0,7.14,JP,1614441567
333,lascahobas,18.8294,-71.9364,84.2,51,20,17.27,HT,1614441567
334,mugumu,-1.85,34.7,69.1,61,86,5.53,TZ,1614441567
335,tezu,27.9167,96.1667,69.13,52,59,4.65,IN,1614441567
336,sioux lookout,50.1001,-91.917,-2.2,65,40,5.75,CA,1614441568
337,grand-lahou,5.1367,-5.0242,83.32,72,79,8.63,CI,1614441568
338,dingle,10.9995,122.6711,76.51,88,87,5.59,PH,1614441568
339,tautira,-17.7333,-149.15,80.6,78,75,10.36,PF,1614441568
340,santa cruz cabralia,-16.2781,-39.0247,84.2,61,75,11.5,BR,1614441568
341,ontario,34.0633,-117.6509,53.01,65,1,0.89,US,1614441569
342,burkburnett,34.0979,-98.5706,55.0,100,90,9.22,US,1614441569
343,richards bay,-28.783,32.0377,72.9,74,1,5.77,ZA,1614441508
344,bubaque,11.2833,-15.8333,81.99,47,0,8.03,GW,1614441569
345,half moon bay,37.4636,-122.4286,46.99,66,1,12.66,US,1614441569
346,burnie,-41.0667,145.9167,60.01,88,97,1.01,AU,1614441570
347,haines junction,60.7522,-137.5108,1.4,85,100,1.14,CA,1614441570
348,kamina,-8.7386,24.9906,72.82,89,54,3.11,CD,1614441570
349,esperance,-33.8667,121.9,62.6,88,90,11.5,AU,1614441570
350,teseney,15.11,36.6575,83.1,15,0,10.27,ER,1614441571
351,egvekinot,66.3167,-179.1667,-20.99,84,0,10.8,RU,1614441571
352,savinka,50.0785,47.0994,32.81,95,100,13.71,RU,1614441571
353,san antonio,29.4241,-98.4936,66.99,100,90,9.22,US,1614441499
354,talara,-4.5772,-81.2719,80.6,57,0,12.66,PE,1614441571
355,polis,35.0367,32.4264,60.8,72,20,10.36,CY,1614441572
356,mildura,-34.2,142.15,66.2,42,0,4.61,AU,1614441572
357,fukue,32.6881,128.8419,55.2,53,100,13.2,JP,1614441572
358,darnah,32.767,22.6367,59.09,70,0,12.06,LY,1614441572
359,sindor,62.8629,51.8905,-1.7,97,66,4.29,RU,1614441572
360,tilichiki,60.4667,166.1,-23.35,87,100,10.65,RU,1614441572
361,quatre cocos,-20.2078,57.7625,80.6,74,75,6.91,MU,1614441573
362,berlevag,70.8578,29.0864,29.53,95,87,10.2,NO,1614441573
363,jawhar,2.7809,45.5005,77.72,70,1,17.29,SO,1614441573
364,nanortalik,60.1432,-45.2371,23.9,92,92,34.74,GL,1614441573
365,kontagora,10.3999,5.4695,100.89,10,0,4.36,NG,1614441573
366,adrar,20.5022,-10.0711,77.2,17,0,7.16,MR,1614441574
367,neiafu,-18.65,-173.9833,73.4,88,75,9.22,TO,1614441574
368,kloulklubed,7.0419,134.2556,78.8,89,75,5.75,PW,1614441574
369,vanavara,60.34,102.2797,-15.05,88,100,6.62,RU,1614441574
370,kahului,20.8947,-156.47,69.8,83,20,16.11,US,1614441462
371,bay roberts,47.5999,-53.2648,23.0,53,15,5.99,CA,1614441575
372,pimentel,-6.8367,-79.9342,78.8,61,0,11.5,PE,1614441575
373,price,39.5994,-110.8107,21.2,45,20,8.05,US,1614441297
374,chokwe,-24.5333,32.9833,73.74,77,100,7.74,MZ,1614441575
375,lata,40.1629,-8.3327,68.0,69,100,1.01,PT,1614441575
376,iskateley,67.6803,53.1512,0.37,92,100,13.56,RU,1614441576
377,kudahuvadhoo,2.6708,72.8944,82.0,73,66,10.36,MV,1614441576
378,marienburg,54.0359,19.0266,42.01,100,0,6.4,PL,1614441576
379,alofi,-19.0595,-169.9187,78.8,83,100,11.5,NU,1614441576
380,jonkoping,57.7814,14.1562,48.2,49,57,6.91,SE,1614441577
381,meadow lake,34.8014,-106.5436,41.0,27,40,10.36,US,1614441577
382,awjilah,29.1081,21.2869,67.77,36,2,9.91,LY,1614441577
383,anito,12.4497,125.2886,78.76,87,2,8.97,PH,1614441577
384,almazar,40.3217,69.0106,32.0,59,11,20.13,UZ,1614441577
385,broken hill,-31.95,141.4333,71.6,23,22,3.44,AU,1614441577
386,petropavlovsk-kamchatskiy,53.0452,158.6483,15.8,79,100,9.57,RU,1614441577
387,macklin,52.3334,-109.9348,3.2,85,96,4.61,CA,1614441577
388,liverpool,53.4106,-2.9779,55.4,54,3,4.61,GB,1614441278
389,sistranda,63.7256,8.834,44.6,87,75,27.63,NO,1614441577
390,tarancon,40.0085,-3.0073,66.0,39,0,2.3,ES,1614441578
391,camacha,33.0833,-16.3333,59.0,82,40,19.57,PT,1614441578
392,sawakin,19.1059,37.3321,75.33,62,0,6.11,SD,1614441578
393,naze,28.3667,129.4833,60.6,91,100,34.99,JP,1614441579
394,makungu,-8.7333,35.2833,67.82,87,100,0.92,TZ,1614441579
395,onda,39.9667,-0.25,60.01,63,69,1.99,ES,1614441579
396,viedma,-40.8135,-62.9967,95.16,15,0,19.17,AR,1614441579
397,jimani,18.4917,-71.8502,84.2,51,20,17.27,DO,1614441579
398,notse,6.95,1.1667,91.85,43,79,8.3,TG,1614441580
399,hovd,48.0056,91.6419,8.06,62,9,0.25,MN,1614441580
400,kargala,56.6208,83.9607,-11.99,76,99,6.02,RU,1614441580
401,guarapari,-20.6667,-40.4975,84.2,70,75,9.22,BR,1614441580
402,igrim,63.1906,64.4162,-9.8,91,22,6.11,RU,1614441580
403,yeppoon,-23.1333,150.7333,78.8,78,73,6.91,AU,1614441581
404,keflavik,64.0049,-22.5624,44.6,76,75,33.38,IS,1614441581
405,cairns,-16.9167,145.7667,77.0,94,90,5.75,AU,1614441581
406,porbandar,21.6422,69.6093,74.19,84,0,10.71,IN,1614441581
407,nexo,55.0607,15.1306,41.0,81,0,6.91,DK,1614441581
408,skegness,53.1436,0.3363,51.8,62,20,6.91,GB,1614441407
409,bhatkal,13.9667,74.5667,79.21,73,0,7.81,IN,1614441582
410,nago,26.5881,127.9761,69.8,88,90,4.61,JP,1614441582
411,batagay-alyta,67.8006,130.4114,-31.88,99,0,0.31,RU,1614441582
412,muros,42.7762,-9.0603,68.0,58,78,5.01,ES,1614441583
413,aleksandrov gay,50.147,48.5704,32.4,93,100,12.91,RU,1614441583
414,high level,58.5169,-117.136,-25.6,75,75,0.43,CA,1614441583
415,kattivakkam,13.2167,80.3167,78.8,83,20,4.61,IN,1614441583
416,nome,64.5011,-165.4064,-7.6,71,1,6.62,US,1614441369
417,hamilton,39.1834,-84.5333,51.01,76,90,5.75,US,1614441331
418,yarada,17.65,83.2667,80.6,83,20,4.61,IN,1614441584
419,zychlin,52.244,19.6261,46.4,57,40,12.66,PL,1614441584
420,bowen,-20.0167,148.2333,77.0,94,40,8.05,AU,1614441584
421,kieta,-6.2167,155.6333,79.09,84,97,11.63,PG,1614441585
422,oum hadjer,13.2954,19.6966,96.35,10,10,10.6,TD,1614441585
423,chiria,22.3,85.2667,70.52,19,0,2.51,IN,1614441585
424,nyagan,62.1406,65.3936,-11.22,90,20,5.21,RU,1614441585
425,zhigansk,66.7697,123.3711,-28.95,94,100,9.44,RU,1614441585
426,nicoya,10.1483,-85.452,86.0,51,20,24.16,CR,1614441585
427,puerto barrios,15.7167,-88.6,80.6,78,20,4.61,GT,1614441586
428,holsted,55.5109,8.9187,50.0,81,0,6.91,DK,1614441586
429,dawei,14.0833,98.2,69.53,86,14,2.91,MM,1614441586
430,mizdah,31.4451,12.9801,63.46,30,0,1.25,LY,1614441586
431,antofagasta,-23.65,-70.4,69.8,68,0,13.8,CL,1614441332
432,togur,58.3631,82.8265,-11.88,89,93,7.4,RU,1614441587
433,kharp,66.8014,65.8081,-16.35,87,80,2.21,RU,1614441587
434,acarau,-2.8856,-40.12,83.07,74,93,11.1,BR,1614441464
435,nioro,13.35,-15.75,98.33,8,4,7.99,GM,1614441587
436,zilair,52.2332,57.4392,20.84,98,100,5.77,RU,1614441588
437,barabai,-2.5833,115.3833,74.48,90,94,1.92,ID,1614441588
438,matelandia,-25.2408,-53.9964,86.0,54,20,8.05,BR,1614441588
439,quesnel,52.9999,-122.5029,8.6,92,1,2.3,CA,1614441589
440,waitara,-38.925,174.25,60.01,84,100,3.0,NZ,1614441589
441,flinders,-34.5833,150.8552,66.99,93,62,1.01,AU,1614441589
442,balkhash,46.844,74.9804,4.41,92,100,10.8,KZ,1614441589
443,whitecourt,54.1502,-115.6855,1.4,85,20,2.3,CA,1614441590
444,necochea,-38.5473,-58.7368,89.01,33,1,15.01,AR,1614441590
445,cabra,37.4725,-4.4421,63.0,67,0,4.61,ES,1614441590
446,neyshabur,36.2133,58.7958,42.08,46,0,3.8,IR,1614441590
447,taoudenni,22.6783,-3.9836,85.35,12,0,4.47,ML,1614441591
448,minab,27.1467,57.0801,73.4,56,0,13.8,IR,1614441591
449,along,28.1667,94.7667,60.06,84,97,1.61,IN,1614441591
450,bandarbeyla,9.4942,50.8122,77.32,75,4,16.51,SO,1614441591
451,katete,-0.7818,29.7544,75.4,41,99,1.25,UG,1614441591
452,port keats,-14.25,129.55,80.85,74,55,3.27,AU,1614441592
453,aykhal,66.0,111.5,-32.58,80,87,3.91,RU,1614441592
454,burntwood,52.6808,-1.9276,52.0,53,0,3.0,GB,1614441592
455,santa ana,33.7456,-117.8678,50.0,66,20,3.47,US,1614441592
456,kimbe,-5.5502,150.1429,77.22,89,99,2.84,PG,1614441593
457,mecca,21.4267,39.8261,76.35,58,38,11.21,SA,1614441593
458,martapura,-3.4167,114.85,78.8,94,96,4.61,ID,1614441593
459,svetlogorsk,52.6333,29.7333,34.63,97,100,10.6,BY,1614441593
460,umm lajj,25.0213,37.2685,72.54,62,0,11.95,SA,1614441593
461,simao,22.7886,100.9748,56.16,54,2,1.61,CN,1614441593
462,sainte-maxime,43.3,6.6333,55.99,71,75,10.36,FR,1614441593
463,mandera,3.9366,41.867,93.18,19,0,8.77,KE,1614441594
464,saint-gabriel,46.3001,-73.3824,21.0,79,100,10.36,CA,1614441594
465,elbistan,38.2059,37.1983,30.87,93,0,0.29,TR,1614441345
466,la libertad,-2.2333,-80.9,78.8,78,0,5.75,EC,1614441594
467,maniitsoq,65.4167,-52.9,15.08,93,99,12.71,GL,1614441594
468,mayumba,-3.432,10.6554,82.58,74,57,8.16,GA,1614441594
469,jijiga,9.35,42.8,69.39,46,34,17.05,ET,1614441324
470,skjervoy,70.0311,20.9714,34.36,95,100,13.73,NO,1614441595
471,bilibino,68.0546,166.4372,-21.89,86,2,1.9,RU,1614441595
472,port hedland,-20.3167,118.5667,82.4,78,19,17.27,AU,1614441595
473,shahpura,27.3833,75.9667,77.0,33,20,2.3,IN,1614441595
474,rio pardo,-29.9897,-52.3781,85.86,51,16,9.33,BR,1614441595
475,coachella,33.6803,-116.1739,60.01,48,1,3.44,US,1614441596
476,nipani,16.4,74.3833,78.8,44,40,6.91,IN,1614441596
477,santa cruz de la palma,28.6835,-17.7642,64.4,59,75,19.57,ES,1614441596
478,pidhaytsi,49.2685,25.1334,41.0,75,75,11.18,UA,1614441596
479,merauke,-8.4667,140.3333,80.62,85,56,11.74,ID,1614441304
480,sergeyevka,53.88,67.4158,4.12,85,100,13.29,KZ,1614441596
481,balcesti,44.6167,23.95,63.0,34,0,14.97,RO,1614441596
482,conakry,9.538,-13.6773,87.8,55,0,13.8,GN,1614441394
483,clifton,40.8584,-74.1638,45.0,87,90,3.44,US,1614441441
484,susangerd,31.5608,48.1831,66.2,30,0,4.61,IR,1614441445
485,ugoofaaru,5.6667,73.0,82.56,74,55,9.35,MV,1614441597
486,namibe,-15.1961,12.1522,74.7,73,28,15.21,AO,1614441597
487,pisco,-13.7,-76.2167,73.99,83,0,8.05,PE,1614441597
488,porto novo,6.4965,2.6036,87.8,58,20,11.5,BJ,1614441598
489,bisho,-32.8472,27.4422,68.0,94,90,10.36,ZA,1614441498
490,the valley,18.217,-63.0578,82.4,69,20,18.41,AI,1614441386
491,mandleshwar,22.1833,75.6667,71.6,40,2,7.54,IN,1614441598
492,palmer,42.1584,-72.3287,39.99,100,90,4.61,US,1614441598
493,makakilo city,21.3469,-158.0858,71.6,73,1,4.61,US,1614441599
494,jitra,6.2681,100.4217,78.8,83,20,1.99,MY,1614441599
495,ginda,30.6945,78.4932,50.14,60,71,4.05,IN,1614441599
496,kwakoa,-3.7667,37.7167,82.83,31,48,6.4,TZ,1614441599
497,pacific grove,36.6177,-121.9166,46.99,81,1,4.61,US,1614441481
498,katangli,51.7102,143.2326,-0.45,91,65,6.78,RU,1614441600
499,linqiong,30.4159,103.4609,52.0,100,40,6.71,CN,1614441600
500,abnub,27.2696,31.1511,69.8,37,0,13.8,EG,1614441600
501,pensacola,30.4213,-87.2169,68.0,94,90,9.22,US,1614441440
502,ostersund,63.1792,14.6357,39.2,81,75,21.85,SE,1614441498
503,lethem,3.3803,-59.7968,90.34,44,88,11.95,GY,1614441600
504,punta alta,-38.8759,-62.0736,90.57,24,0,14.67,AR,1614441600
505,luanda,-8.8368,13.2343,87.8,62,40,12.66,AO,1614441537
506,lumeje,-11.55,20.7833,79.86,61,36,1.95,AO,1614441601
507,la orilla,17.9833,-102.2333,81.28,43,0,4.92,MX,1614441601
508,ouadda,8.0777,22.4007,92.16,18,43,2.86,CF,1614441602
509,puerto penasco,31.3167,-113.5333,55.0,53,75,10.4,MX,1614441602
510,lasa,46.6166,10.7002,68.0,61,0,10.36,IT,1614441603
511,troitsko-pechorsk,62.7084,56.1964,-2.34,93,0,4.61,RU,1614441603
512,russell,32.3502,-85.1999,73.0,100,90,4.61,US,1614441604
513,krasnoselkup,65.7,82.4667,-28.73,86,0,3.47,RU,1614441604
514,labuhan,-6.8844,112.2051,79.07,82,100,4.83,ID,1614441604
515,chapais,49.7834,-74.8492,26.6,63,1,18.41,CA,1614441606
516,los llanos de aridane,28.6585,-17.9182,64.4,59,75,19.57,ES,1614441476
517,salamanca,40.8333,-6.0,60.01,54,36,5.01,ES,1614441606
518,karratha,-20.7377,116.8463,82.63,66,4,17.49,AU,1614441608
519,mantua,45.1667,10.7833,63.0,42,0,13.8,IT,1614441431
520,sri aman,1.2376,111.4621,75.2,94,13,1.32,MY,1614441608
521,vao,-22.6667,167.4833,77.2,74,92,13.82,NC,1614441610
522,garden city,42.3256,-83.331,44.6,75,40,8.05,US,1614441611
523,korla,41.7597,86.1469,30.51,78,100,11.14,CN,1614441612
524,port blair,11.6667,92.75,78.04,65,0,5.61,IN,1614441612
525,salalah,17.0151,54.0924,80.6,57,0,5.75,OM,1614441614
526,coihaique,-45.5752,-72.0662,62.28,81,99,5.19,CL,1614441615
527,shimoda,34.6667,138.95,34.0,66,97,1.01,JP,1614441616
528,siloam springs,36.1881,-94.5405,54.0,100,1,6.91,US,1614441616
529,abay,49.6311,72.8539,3.2,72,0,22.37,KZ,1614441560
530,monte alegre,-2.0078,-54.0692,83.53,70,49,7.18,BR,1614441617
531,prince rupert,54.3161,-130.3201,37.4,93,90,8.05,CA,1614441524
532,ranong,9.9658,98.6348,74.21,75,1,2.75,TH,1614441617
533,domoni,-12.2569,44.5319,81.14,78,99,6.71,KM,1614441618
534,maceio,-9.6658,-35.7353,84.2,70,75,14.97,BR,1614441552
535,hammerfest,70.6634,23.6821,32.0,80,75,9.22,NO,1614441618
536,victor harbor,-35.5667,138.6167,61.0,81,53,4.36,AU,1614441619
537,port pirie,-33.1833,138.0167,66.2,77,25,9.22,AU,1614441619
538,anacortes,48.5126,-122.6127,42.8,61,75,10.36,US,1614441589
539,zhigalovo,54.8097,105.1578,-16.13,85,88,2.86,RU,1614441620
540,puerto escondido,15.85,-97.0667,80.6,78,1,5.75,MX,1614441620
541,gornopravdinsk,60.05,69.9,-12.06,89,44,5.82,RU,1614441620
542,macenta,8.5435,-9.471,93.85,24,5,3.85,GN,1614441621
543,tirumullaivasal,11.2333,79.8333,76.44,75,0,10.36,IN,1614441621
544,tateyama,34.9833,139.8667,39.2,52,20,10.36,JP,1614441622
545,ecuandureo,20.1667,-102.1833,78.64,30,15,1.61,MX,1614441622
546,borisoglebsk,51.3671,42.0849,24.44,81,98,16.13,RU,1614441622
547,ahipara,-35.1667,173.1667,60.94,89,7,4.9,NZ,1614441623
548,hambantota,6.1241,81.1185,80.6,94,40,3.44,LK,1614441623
549,hanzhong,33.0728,107.0303,45.82,83,100,2.17,CN,1614441624
550,gorontalo,0.5412,123.0595,76.15,87,66,3.4,ID,1614441624
551,mbini,1.574,9.6134,84.07,67,16,7.65,GQ,1614441625
552,namatanai,-3.6667,152.4333,80.37,80,100,5.55,PG,1614441625
553,ngunguru,-35.6167,174.5,61.0,95,78,5.01,NZ,1614441625
554,sulphur,30.2366,-93.3774,73.4,94,40,11.5,US,1614441626
555,nizhniy odes,63.6445,54.856,-1.82,91,1,5.12,RU,1614441626
556,colac,-38.3333,143.5833,50.0,96,10,3.71,AU,1614441627
557,karagaylinskiy,54.172,86.5521,-8.79,89,100,5.59,RU,1614441627
558,luwuk,-0.9516,122.7875,78.39,76,53,5.06,ID,1614441628
559,san policarpo,12.1791,125.5072,80.8,82,0,11.07,PH,1614441628
560,cochrane,51.1834,-114.4687,10.99,85,90,3.0,CA,1614441491
561,general roca,-39.0333,-67.5833,82.4,54,0,11.5,AR,1614441629
562,blind river,46.1834,-82.9582,33.8,80,75,6.91,CA,1614441629
563,winona,43.9666,-91.7668,37.99,75,1,4.25,US,1614441629
564,aljezur,37.3191,-8.8033,61.07,68,100,3.94,PT,1614441630
565,solsona,41.994,1.5171,59.0,41,0,9.22,ES,1614441630
566,zhangye,38.9342,100.4517,28.63,74,69,1.86,CN,1614441631
567,rio verde de mato grosso,-18.9181,-54.8442,87.91,58,2,0.85,BR,1614441631
568,buchanan,5.8808,-10.0467,84.31,68,16,9.44,LR,1614441632
